,City,Cloudiness(%),Country,Date,Humidity(%),Lat,Lng,Max Temp(F),Wind Speed(mph)
0,Arraial do Cabo,40,BR,Jul/22/2019,94,-22.97,-42.02,68,10.29
1,Mehamn,5,NO,Jul/22/2019,92,71.03,27.85,52.55,2.37
2,Inirida,80,CO,Jul/22/2019,94,3.87,-67.92,74.69,1.19
3,Lichuan,100,CN,Jul/22/2019,95,30.3,108.94,73.61,2.46
4,Punta Arenas,40,CL,Jul/22/2019,70,-53.16,-70.91,35.6,25.28
5,Vanimo,100,PG,Jul/22/2019,71,-2.67,141.3,83.33,8.63
6,Kushima,75,JP,Jul/22/2019,74,31.5,131.29,84.2,8.05
7,Cape Town,75,ZA,Jul/22/2019,93,-33.93,18.42,57,23.04
8,Hermanus,2,ZA,Jul/22/2019,68,-34.42,19.24,62.01,8.99
9,Arman,0,RU,Jul/22/2019,40,59.7,150.17,52.73,9.95
10,Port Elizabeth,1,US,Jul/22/2019,94,39.31,-74.98,84,4.7
11,Vaini,75,IN,Jul/22/2019,100,15.34,74.49,69.8,11.41
12,Nelson Bay,0,AU,Jul/22/2019,59,-32.72,152.14,69.01,10.29
13,Morris,1,US,Jul/22/2019,43,45.59,-95.91,75.2,5.82
14,Uglich,1,RU,Jul/22/2019,85,57.53,38.32,54.17,3.18
15,Hilo,90,US,Jul/22/2019,83,19.71,-155.08,80.01,5.82
16,Port Alfred,0,ZA,Jul/22/2019,87,-33.59,26.89,55.99,3
17,Toora-Khem,21,RU,Jul/22/2019,66,52.47,96.11,59.39,1.54
18,Dikson,100,RU,Jul/22/2019,93,73.51,80.55,34.91,9.69
19,Qaanaaq,100,GL,Jul/22/2019,85,77.48,-69.36,39.59,15.41
20,Beloha,0,MG,Jul/22/2019,75,-25.17,45.06,54.71,6.35
21,Lorengau,94,PG,Jul/22/2019,74,-2.02,147.27,82.97,8.77
22,Airai,8,TL,Jul/22/2019,39,-8.93,125.41,76.13,0.58
23,Sorland,12,NO,Jul/22/2019,89,67.67,12.69,52.19,6.15
24,Kieta,55,PG,Jul/22/2019,68,-6.22,155.63,82.61,1.72
25,Pevek,100,RU,Jul/22/2019,98,69.7,170.27,31.13,12.12
26,Rikitea,0,PF,Jul/22/2019,72,-23.12,-134.97,68.93,19.98
27,Kerugoya,55,KE,Jul/22/2019,92,-0.5,37.28,50.93,0.96
28,Bluff,0,AU,Jul/22/2019,61,-23.58,149.07,67.13,4.25
29,Lasa,0,CY,Jul/22/2019,56,34.92,32.53,75.2,6.93
30,Puerto Ayora,55,EC,Jul/22/2019,91,-0.74,-90.35,70,3
31,East London,0,ZA,Jul/22/2019,41,-33.02,27.91,57.77,1.32
32,Victoria,75,BN,Jul/22/2019,83,5.28,115.24,80.6,6.93
33,The Valley,20,AI,Jul/22/2019,74,18.22,-63.06,84.2,11.41
34,Yellowknife,20,CA,Jul/22/2019,34,62.45,-114.38,80.6,8.05
35,Saint-Philippe,90,CA,Jul/22/2019,82,45.36,-73.48,72,4.03
36,Chilia Veche,24,UA,Jul/22/2019,68,45.41,29.29,71.6,9.17
37,Hasaki,75,JP,Jul/22/2019,100,35.73,140.83,75.2,5.82
38,Mar del Plata,36,AR,Jul/22/2019,63,-46.43,-67.52,38.33,11.63
39,Dicabisagan,49,PH,Jul/22/2019,86,17.08,122.42,78.83,1.43
40,Tiksi,57,RU,Jul/22/2019,36,71.64,128.87,63.53,13.24
41,Ilulissat,5,GL,Jul/22/2019,62,69.22,-51.1,51.8,1.12
42,Carutapera,5,BR,Jul/22/2019,85,-1.2,-46.02,77.03,5.57
43,Namatanai,74,PG,Jul/22/2019,83,-3.66,152.44,79.37,15.1
44,Kutum,50,SD,Jul/22/2019,73,14.2,24.66,71.09,19.1
45,Ushuaia,75,AR,Jul/22/2019,80,-54.81,-68.31,33.8,8.05
46,Kodiak,1,US,Jul/22/2019,53,39.95,-94.76,78.8,12.75
47,Saint Anthony,1,US,Jul/22/2019,12,43.97,-111.68,95,4.7
48,Kapaa,90,US,Jul/22/2019,74,22.08,-159.32,80.6,12.75
49,Busselton,38,AU,Jul/22/2019,72,-33.64,115.35,59,11.99
50,Constitucion,90,MX,Jul/22/2019,68,23.99,-104.67,68,5.82
51,Castro,20,CL,Jul/22/2019,100,-42.48,-73.76,35.6,2.24
52,Chuy,100,UY,Jul/22/2019,81,-33.69,-53.46,54.89,15.52
53,Erdenet,100,MN,Jul/22/2019,96,49.03,104.04,53.81,6.96
54,Gat,60,SN,Jul/22/2019,78,14.69,-16.54,80.6,4.7
55,Bethel,90,US,Jul/22/2019,64,60.79,-161.76,69.8,5.82
56,Polyarnyy,0,RU,Jul/22/2019,71,69.2,33.45,57.2,4.47
57,Atuona,2,PF,Jul/22/2019,75,-9.8,-139.03,79.55,13.53
58,Whitehorse,75,CA,Jul/22/2019,93,60.72,-135.06,62.01,4.7
59,Ayr,82,AU,Jul/22/2019,70,-19.58,147.4,69.47,5.06
60,Mataura,71,NZ,Jul/22/2019,96,-46.19,168.86,46,1.99
61,Cayenne,0,GF,Jul/22/2019,100,4.94,-52.33,75.2,2.24
62,Le Port,54,FR,Jul/22/2019,39,42.87,1.37,78.01,3
63,Pisco,90,PE,Jul/22/2019,82,-13.71,-76.2,62.6,6.93
64,Seydisehir,7,TR,Jul/22/2019,68,37.42,31.85,59.21,7.2
65,Matagami,43,NG,Jul/22/2019,95,9.67,8.4,67.67,1.99
66,Sale,81,AU,Jul/22/2019,58,-38.11,147.06,59,14.43
67,Provideniya,90,RU,Jul/22/2019,81,64.42,-173.23,50,8.95
68,Birin,75,NP,Jul/22/2019,94,26.89,88.07,78.8,2.24
69,Vostok,79,RU,Jul/22/2019,90,46.45,135.83,66.59,2.71
70,Upernavik,0,GL,Jul/22/2019,82,72.79,-56.15,43.55,10.63
71,Itaituba,18,BR,Jul/22/2019,71,-4.26,-55.99,76.85,1.95
72,Sangar,0,RU,Jul/22/2019,40,63.92,127.47,64.97,5.79
73,Wad Rawah,89,SD,Jul/22/2019,60,15.16,33.13,83.15,17.29
74,Chimoio,0,MZ,Jul/22/2019,76,-19.11,33.48,53.6,2.06
75,Merauke,98,ID,Jul/22/2019,83,-8.49,140.4,77.03,18.41
76,Sur,61,OM,Jul/22/2019,78,22.57,59.53,78.47,10.65
77,Minatitlan,75,MX,Jul/22/2019,88,19.39,-104.05,87.8,19.46
78,Banjar,89,ID,Jul/22/2019,94,-7.37,108.54,69.47,1.14
79,Norman Wells,75,CA,Jul/22/2019,57,65.28,-126.83,75.2,9.17
80,Asyut,0,EG,Jul/22/2019,39,27.18,31.19,82.4,6.93
81,Dryden,90,CA,Jul/22/2019,93,49.79,-92.84,62.6,9.17
82,Kemise,98,ET,Jul/22/2019,76,10.72,39.87,49.67,4.36
83,Montauban,0,FR,Jul/22/2019,54,44.02,1.35,84.99,5.82
84,Hobart,75,AU,Jul/22/2019,66,-42.88,147.33,51.01,8.05
85,Komsomolskiy,95,RU,Jul/22/2019,71,67.55,63.78,54.53,8.88
86,Kalmunai,99,LK,Jul/22/2019,77,7.42,81.82,76.13,2.93
87,Muros,0,ES,Jul/22/2019,100,42.77,-9.06,69.8,18.57
88,Half Moon Bay,5,US,Jul/22/2019,30,37.46,-122.43,87.01,12.75
89,Islamkot,16,PK,Jul/22/2019,62,24.7,70.18,88.91,8.16
90,Chokurdakh,53,RU,Jul/22/2019,57,70.62,147.9,42.83,6.2
91,Te Anau,70,NZ,Jul/22/2019,81,-45.41,167.72,44.81,2.15
92,Diu,3,IN,Jul/22/2019,88,20.71,70.98,81.35,8.77
93,Bredasdorp,0,ZA,Jul/22/2019,66,-34.53,20.04,62.01,3.36
94,Altay,84,CN,Jul/22/2019,79,47.83,88.13,53.27,6.35
95,Okitipupa,93,NG,Jul/22/2019,94,6.5,4.78,74.33,3.69
96,Albany,90,US,Jul/22/2019,88,42.65,-73.75,66.2,5.82
97,Gao,63,ML,Jul/22/2019,40,16.28,-0.04,89.81,11.39
98,Haverfordwest,27,GB,Jul/22/2019,100,51.8,-4.97,64.99,4.7
99,Ambon,0,FR,Jul/22/2019,77,47.55,-2.56,69.01,10.29
100,Codrington,0,AU,Jul/22/2019,77,-28.95,153.24,68,5.82
101,Avarua,86,CK,Jul/22/2019,83,-21.21,-159.78,77,14.99
102,Barrow,0,AR,Jul/22/2019,63,-38.31,-60.23,40.67,1.66
103,Carnarvon,0,ZA,Jul/22/2019,35,-30.97,22.13,46.97,11.9
104,Saldanha,74,PT,Jul/22/2019,53,41.42,-6.55,73.61,2.48
105,Vao,100,EE,Jul/22/2019,72,59.1,26.19,59.39,2.93
106,Beyneu,61,KZ,Jul/22/2019,27,45.32,55.19,83.15,19.86
107,Coruripe,73,BR,Jul/22/2019,95,-10.12,-36.18,68.57,5.03
108,Riberalta,63,BO,Jul/22/2019,59,-11,-66.08,79.55,0.29
109,Lulea,0,SE,Jul/22/2019,82,65.58,22.15,60.8,0.65
110,Guarapari,75,BR,Jul/22/2019,94,-20.67,-40.5,70,3.36
111,Kirakira,1,SB,Jul/22/2019,75,-10.46,161.92,81.89,15.01
112,Fort Nelson,20,CA,Jul/22/2019,41,58.81,-122.69,78.8,4.09
113,Kharp,81,RU,Jul/22/2019,75,66.82,65.8,54.35,2.73
114,Klaksvik,54,FO,Jul/22/2019,100,62.23,-6.59,51.8,4.7
115,Salalah,90,OM,Jul/22/2019,94,17.01,54.1,78.8,2.24
116,Khatanga,100,RU,Jul/22/2019,61,71.98,102.47,61.37,13.04
117,Roald,100,NO,Jul/22/2019,93,62.58,6.12,60.8,5.82
118,Nanortalik,99,GL,Jul/22/2019,96,60.14,-45.24,39.41,4.34
119,Baruun-Urt,100,MN,Jul/22/2019,92,46.68,113.28,60.29,6.35
120,Sechura,73,PE,Jul/22/2019,87,-5.56,-80.82,64.43,15.93
121,Narsaq,31,GL,Jul/22/2019,66,60.91,-46.05,51.8,5.82
122,Jamestown,1,AU,Jul/22/2019,80,-33.21,138.6,51.11,17.76
123,La Plata,0,AR,Jul/22/2019,75,-34.92,-57.95,55.4,3.36
124,Lazaro Cardenas,40,MX,Jul/22/2019,17,28.39,-105.62,93.2,11.41
125,Maracai,97,BR,Jul/22/2019,69,-22.61,-50.67,68.21,6.02
126,Uglovskoye,99,RU,Jul/22/2019,76,51.36,80.19,64.97,5.86
127,Opuwo,0,NA,Jul/22/2019,57,-18.06,13.84,47.87,0.51
128,Santa Cruz,32,BR,Jul/22/2019,88,-6.22,-36.02,68.75,10.67
129,Georgetown,75,GY,Jul/22/2019,94,6.8,-58.16,77,6.93
130,Chicama,20,PE,Jul/22/2019,88,-7.84,-79.15,62.6,9.17
131,Zabid,66,YE,Jul/22/2019,62,14.2,44.5,74.87,1.19
132,Yeniseysk,82,RU,Jul/22/2019,97,58.45,92.17,53.45,5.68
133,Nuuk,75,GL,Jul/22/2019,87,64.17,-51.74,46.4,5.82
134,Luderitz,0,NA,Jul/22/2019,89,-26.65,15.16,54.89,8.25
135,Grand Gaube,79,MU,Jul/22/2019,86,-20.01,57.66,66,13.76
136,Panjakent,0,UZ,Jul/22/2019,29,39.5,67.61,77,9.17
137,Meulaboh,77,ID,Jul/22/2019,76,4.14,96.13,80.63,9.01
138,Tuatapere,49,NZ,Jul/22/2019,96,-46.13,167.69,46,1.99
139,Pangkalanbuun,21,ID,Jul/22/2019,89,-2.68,111.62,73.97,2.48
140,Puerto Leguizamo,85,CO,Jul/22/2019,97,-0.19,-74.78,72.53,2.33
141,Westport,90,US,Jul/22/2019,94,41.14,-73.36,73.99,11.41
142,Jutai,40,BR,Jul/22/2019,96,-1.71,-47.89,73.25,3.36
143,Noumea,0,NC,Jul/22/2019,43,-22.28,166.46,73.4,11.41
144,Progreso,0,UY,Jul/22/2019,81,-34.68,-56.22,54,8.05
145,Butaritari,100,KI,Jul/22/2019,68,3.07,172.79,85.13,7.38
146,Benito Juarez,40,CU,Jul/22/2019,62,22.29,-79.63,84.2,9.17
147,Cabo San Lucas,75,MX,Jul/22/2019,74,22.89,-109.91,89.01,11.41
148,Mount Isa,0,AU,Jul/22/2019,24,-20.73,139.49,71.6,6.93
149,Kavaratti,100,IN,Jul/22/2019,77,10.57,72.64,82.97,21.68
150,Elko,40,US,Jul/22/2019,28,40.83,-115.76,90,24.16
151,Thinadhoo,36,MV,Jul/22/2019,76,0.53,72.93,82.79,11.48
152,Waddan,0,LY,Jul/22/2019,64,29.16,16.14,70.55,1.79
153,Tamandare,15,BR,Jul/22/2019,80,-8.28,-70.75,75.59,2.8
154,Nara,75,JP,Jul/22/2019,88,34.68,135.8,84.2,4.7
155,Aykhal,0,RU,Jul/22/2019,33,65.95,111.51,71.6,4.47
156,Vallenar,85,CL,Jul/22/2019,78,-28.58,-70.76,45.89,2.21
157,Anadyr,40,RU,Jul/22/2019,54,64.73,177.51,55.4,11.18
158,Warrnambool,95,AU,Jul/22/2019,75,-38.38,142.48,54,8.99
159,Acheng,75,CN,Jul/22/2019,88,45.55,126.95,77,17.9
160,Cairns,90,AU,Jul/22/2019,78,-16.92,145.77,73,17.22
161,Dongsheng,11,CN,Jul/22/2019,83,29.72,112.52,84.77,10.02
162,Eureka,1,US,Jul/22/2019,59,40.8,-124.16,68,17.22
163,Natubleng,56,PH,Jul/22/2019,71,16.7,120.78,80.27,1.9
164,Iqaluit,40,CA,Jul/22/2019,81,63.75,-68.52,42.8,4.7
165,Portland,90,US,Jul/22/2019,88,43.66,-70.25,66.2,3.36
166,Ayagoz,9,KZ,Jul/22/2019,71,47.96,80.43,62.45,9.46
167,Saskylakh,37,RU,Jul/22/2019,39,71.97,114.09,73.25,11.54
168,Santa catarina de Tepehuanes,98,MX,Jul/22/2019,58,25.34,-105.72,65.69,7
169,Hithadhoo,67,MV,Jul/22/2019,75,-0.6,73.08,83.15,10.42
170,Isla Vista,20,US,Jul/22/2019,77,34.41,-119.86,96.01,9.17
171,Goderich,0,CA,Jul/22/2019,76,43.74,-81.71,68,17.11
172,Taltal,69,CL,Jul/22/2019,89,-25.41,-70.49,47.33,2.86
173,Nekhayevskiy,31,RU,Jul/22/2019,85,50.41,41.76,57,1.99
174,Malko Tarnovo,20,TR,Jul/22/2019,53,41.98,27.52,71.6,3.36
175,Antalaha,93,MG,Jul/22/2019,94,-14.9,50.28,59.75,4.36
176,Santa Cruz de la Palma,90,ES,Jul/22/2019,64,28.68,-17.76,71.6,11.41
177,Port Blair,40,IN,Jul/22/2019,94,11.67,92.75,77,2.24
178,Adzope,7,CI,Jul/22/2019,97,6.11,-3.86,70.91,4.29
179,Shieli,0,KZ,Jul/22/2019,26,44.18,66.74,79.37,6.8
180,Vila Velha,75,BR,Jul/22/2019,88,-3.71,-38.6,75.2,13.87
181,Calabozo,57,VE,Jul/22/2019,91,8.92,-67.43,77.03,3.22
182,Sao Filipe,35,CV,Jul/22/2019,86,14.9,-24.5,75.77,15.66
183,Thompson,75,CA,Jul/22/2019,30,55.74,-97.86,84.2,9.17
184,Lufilufi,40,WS,Jul/22/2019,79,-13.87,-171.6,86,6.93
185,Boyolangu,4,ID,Jul/22/2019,86,-8.09,111.9,68.93,4.68
186,Caravelas,44,BR,Jul/22/2019,82,-17.73,-39.27,72.53,10.38
187,Ribeira Grande,75,PT,Jul/22/2019,78,38.52,-28.7,71.6,10.29
188,Billings,40,US,Jul/22/2019,36,45.79,-108.5,91.4,11.41
189,Tezu,100,IN,Jul/22/2019,95,27.93,96.16,72.53,0.56
190,Belmonte,0,PT,Jul/22/2019,87,40.36,-7.35,80.01,1.07
191,Kiama,0,AU,Jul/22/2019,36,-34.67,150.86,66,16.11
192,Katangli,100,RU,Jul/22/2019,97,51.71,143.23,61.19,5.1
193,Bethanien,0,NA,Jul/22/2019,42,-26.5,17.16,49.13,8.41
194,Cherskiy,100,RU,Jul/22/2019,93,68.75,161.3,37.43,10.65
195,Cacheu,20,GW,Jul/22/2019,94,12.27,-16.16,82.4,2.24
196,Jinchang,0,CN,Jul/22/2019,44,38.52,102.19,65.33,6.8
197,Koutiala,83,ML,Jul/22/2019,71,12.39,-5.46,78.83,5.79
198,Lebu,40,ET,Jul/22/2019,87,8.96,38.73,55.4,11.41
199,Muisne,14,EC,Jul/22/2019,87,0.61,-80.02,73.97,15.95
200,Stephenville,90,CA,Jul/22/2019,93,48.55,-58.59,59,10.29
201,Mogok,100,MM,Jul/22/2019,97,22.92,96.51,68.39,4.25
202,Ancud,20,CL,Jul/22/2019,100,-41.87,-73.83,35.6,2.24
203,Huarmey,11,PE,Jul/22/2019,88,-10.07,-78.15,62.45,17.29
204,Tres Arroyos,0,AR,Jul/22/2019,63,-38.38,-60.28,40.67,1.66
205,Nome,1,US,Jul/22/2019,100,30.04,-94.42,86,6.76
206,Pacific Grove,1,US,Jul/22/2019,50,36.62,-121.92,91,10.29
207,Hovd,0,NO,Jul/22/2019,64,63.83,10.7,68,17.22
208,Ennis,75,IE,Jul/22/2019,82,52.84,-8.98,66.2,14.99
209,Muzambinho,90,BR,Jul/22/2019,72,-21.37,-46.52,62.45,6.53
210,Kourou,90,GF,Jul/22/2019,100,5.16,-52.64,75.2,1.12
211,Bermejo,67,AR,Jul/22/2019,55,-22.73,-64.34,54.35,0.58
212,Fortuna,0,ES,Jul/22/2019,54,38.18,-1.13,79,3.36
213,Tete,40,MZ,Jul/22/2019,67,-16.16,33.59,59,4.7
214,Borovskoy,63,KZ,Jul/22/2019,88,53.8,64.15,58.85,3.91
215,Esperance,90,AU,Jul/22/2019,87,-33.86,121.89,51.8,13.87
216,Alofi,40,NU,Jul/22/2019,53,-19.06,-169.92,77,10.29
217,Yaan,14,NG,Jul/22/2019,95,7.38,8.57,72.53,8.14
218,Myitkyina,100,MM,Jul/22/2019,99,25.38,97.4,71.45,1.36
219,Joniskis,75,LT,Jul/22/2019,93,56.24,23.62,57.2,8.05
220,Hobyo,36,SO,Jul/22/2019,65,5.35,48.53,76.31,24.74
221,Bathsheba,40,BB,Jul/22/2019,83,13.22,-59.52,80.6,17.22
222,Stuttgart,0,DE,Jul/22/2019,77,48.78,9.18,69.01,4.7
223,Agadez,1,NE,Jul/22/2019,58,16.97,7.99,86,13.62
224,San Cristobal,53,HN,Jul/22/2019,55,14.68,-86.92,75.59,6.73
225,Lower Hutt,0,NZ,Jul/22/2019,93,-41.21,174.91,55.99,9.17
226,Touros,75,BR,Jul/22/2019,74,-5.2,-35.46,78.8,6.93
227,Aksu,90,KZ,Jul/22/2019,100,52.04,76.93,60.8,8.95
228,Solnechnyy,100,RU,Jul/22/2019,98,50.72,136.64,58.31,3.11
229,Russell,1,US,Jul/22/2019,39,38.9,-98.86,82.4,14.99
230,Repnoye,20,RU,Jul/22/2019,82,51.59,43.18,57.99,3.33
231,Tuktoyaktuk,75,CA,Jul/22/2019,82,69.44,-133.03,57.2,6.93
232,Salinopolis,24,BR,Jul/22/2019,79,-0.61,-47.36,81.71,16.06
233,Arequipa,0,PE,Jul/22/2019,46,-16.4,-71.54,53.6,3.49
234,Conde,39,BR,Jul/22/2019,98,-11.81,-37.61,67.67,3.04
235,Nikolskoye,0,RU,Jul/22/2019,82,59.7,30.79,55.4,2.51
236,Sampit,48,ID,Jul/22/2019,84,-2.54,112.95,75.23,1.86
237,Broome,0,GB,Jul/22/2019,93,52.47,1.45,66.99,3.36
238,Lompoc,1,US,Jul/22/2019,72,34.64,-120.46,80.01,13.87
239,Gazojak,0,TM,Jul/22/2019,28,41.19,61.4,78.11,9.28
240,Keita,40,NG,Jul/22/2019,88,7.1,3.65,77,4.7
241,Deputatskiy,76,RU,Jul/22/2019,52,69.3,139.9,47.15,4.43
242,Guerrero Negro,71,MX,Jul/22/2019,79,27.97,-114.04,70.01,11.34
243,Santa Isabel,75,MX,Jul/22/2019,37,32.63,-115.58,102.2,8.05
244,Erenhot,0,CN,Jul/22/2019,60,43.65,111.97,69.11,10.4
245,Salvador,40,BR,Jul/22/2019,78,-12.98,-38.48,77,10.29
246,Jieshi,83,CN,Jul/22/2019,81,22.82,115.83,84.99,3.65
247,Buraydah,0,SA,Jul/22/2019,34,26.33,43.97,82.4,3.36
248,Bambous Virieux,68,MU,Jul/22/2019,86,-20.34,57.76,66,14.79
249,Gobabis,0,NA,Jul/22/2019,12,-22.45,18.97,52.01,13.18
250,Stepnogorsk,1,KZ,Jul/22/2019,94,52.35,71.88,59.75,10.02
251,Tasiilaq,0,GL,Jul/22/2019,100,65.61,-37.64,42.8,2.06
252,Surdulica,1,RS,Jul/22/2019,86,42.69,22.17,63,1.74
253,College,1,US,Jul/22/2019,36,64.86,-147.8,82,0.85
254,Deshnok,63,IN,Jul/22/2019,45,27.8,73.34,94.49,12.03
255,Longyearbyen,75,NO,Jul/22/2019,87,78.22,15.63,44.6,2.24
256,Hambantota,40,LK,Jul/22/2019,100,6.12,81.12,77,4.7
257,Sistranda,75,NO,Jul/22/2019,93,63.73,8.83,62.01,2.24
258,Tateyama,75,JP,Jul/22/2019,88,36.66,137.31,86,3.36
259,Nicolas Bravo,90,MX,Jul/22/2019,68,24.39,-104.74,66.99,5.82
260,Lacombe,40,CA,Jul/22/2019,57,52.47,-113.73,81,10.29
261,Naryan-Mar,100,RU,Jul/22/2019,70,67.67,53.09,46.97,12.82
262,Les Cayes,2,HT,Jul/22/2019,74,18.19,-73.75,82.43,12.73
263,Poronaysk,92,RU,Jul/22/2019,93,49.22,143.1,63.71,6.17
264,Sanok,0,PL,Jul/22/2019,82,49.56,22.21,64.4,5.82
265,Neepawa,20,CA,Jul/22/2019,44,50.23,-99.46,78.8,8.05
266,Khilok,99,RU,Jul/22/2019,70,51.36,110.46,61.91,7.34
267,Neiafu,31,TO,Jul/22/2019,58,-18.65,-173.98,72.71,9.84
268,Bilibino,97,RU,Jul/22/2019,87,68.06,166.44,35.81,5.91
269,Salamiyah,0,SY,Jul/22/2019,62,35.01,37.05,68.93,7.54
270,Andrushivka,63,UA,Jul/22/2019,89,50.03,29.02,58.49,7.14
271,Pout,40,SN,Jul/22/2019,78,14.77,-17.06,78.8,8.05
272,Kloulklubed,90,PW,Jul/22/2019,88,7.04,134.26,78.8,6.93
273,Syracuse,90,US,Jul/22/2019,93,43.05,-76.15,66.99,5.28
274,Amapa,75,HN,Jul/22/2019,55,15.09,-87.97,87.8,10.29
275,Zhuhai,75,CN,Jul/22/2019,82,40.71,112.04,66.2,2.24
276,Kununurra,0,AU,Jul/22/2019,60,-15.77,128.74,73.4,3.36
277,Praia da Vitoria,20,PT,Jul/22/2019,88,38.73,-27.07,71.01,10.25
278,Karratha,47,AU,Jul/22/2019,19,-20.74,116.85,67.13,18.39
279,Wanning,20,AT,Jul/22/2019,82,48.64,13.53,66.99,3.36
280,Naranjal,0,PY,Jul/22/2019,57,-25.97,-55.19,75.2,8.05
281,Praia,0,BR,Jul/22/2019,67,-20.25,-43.81,62.6,5.82
282,Kaitangata,97,NZ,Jul/22/2019,78,-46.28,169.85,53.01,1.99
283,Kamina,0,CD,Jul/22/2019,41,-8.74,25,57.59,5.23
284,Dunmore Town,100,BS,Jul/22/2019,78,25.5,-76.65,83.87,16.84
285,Pontes e Lacerda,0,BR,Jul/22/2019,42,-15.23,-59.33,77.93,4.09
286,Lavrentiya,100,RU,Jul/22/2019,80,65.58,-170.99,48.41,14.81
287,Usinsk,93,RU,Jul/22/2019,87,66,57.56,57.41,17.02
288,Storforshei,31,NO,Jul/22/2019,93,66.4,14.52,57,1.01
289,Leningradskiy,84,RU,Jul/22/2019,89,69.38,178.42,38.87,7.09
290,Port Lincoln,44,AU,Jul/22/2019,70,-34.72,135.86,57.95,33.22
291,Iquitos,20,PE,Jul/22/2019,83,-3.75,-73.25,80.6,1.48
292,Veraval,0,FR,Jul/22/2019,77,49.65,0.71,66,5.82
293,Kayerkan,75,RU,Jul/22/2019,93,69.35,87.76,55.4,15.66
294,Romodanovo,5,RU,Jul/22/2019,89,54.42,45.33,54.53,3.2
295,Lata,7,IN,Jul/22/2019,86,30.78,78.62,40.85,2.53
296,Rome,0,IT,Jul/22/2019,60,41.89,12.48,77,2.24
297,Xuddur,19,SO,Jul/22/2019,61,4.12,43.89,70.73,23.15
298,Havre-Saint-Pierre,20,CA,Jul/22/2019,76,50.23,-63.6,57.2,11.41
299,Lagoa,0,PT,Jul/22/2019,78,37.14,-8.45,75.2,3.36
300,Mandera,35,ET,Jul/22/2019,61,3.94,41.86,82,1.99
301,Luanda,8,AO,Jul/22/2019,100,-8.83,13.24,68,5.82
302,Geraldton,75,CA,Jul/22/2019,100,49.72,-86.95,59,3.36
303,Mwinilunga,0,ZM,Jul/22/2019,59,-11.73,24.43,50.57,3.6
304,Itatskiy,0,RU,Jul/22/2019,92,56.07,89.04,51.11,2.93
305,Kaa-Khem,65,RU,Jul/22/2019,64,51.7,94.56,59.03,6.2
306,Bud,100,NO,Jul/22/2019,87,62.91,6.91,60.8,5.82
307,Buala,92,SB,Jul/22/2019,77,-8.15,159.59,82.43,8.43
308,Daru,100,PG,Jul/22/2019,87,-9.07,143.21,77.57,10.18
309,Arica,90,CL,Jul/22/2019,77,-18.48,-70.32,60.8,6.93
310,Severo-Kurilsk,100,RU,Jul/22/2019,95,50.68,156.12,46.07,13.67
311,Kahului,75,US,Jul/22/2019,51,20.89,-156.47,86,13.87
312,Vardo,90,US,Jul/22/2019,100,39.62,-77.74,79,6.93
313,Tulun,81,RU,Jul/22/2019,85,54.56,100.58,62.81,1.25
314,Beira,0,ES,Jul/22/2019,93,43.2,-8.36,69.01,2.24
315,Arroyos y Esteros,75,PY,Jul/22/2019,73,-25.05,-57.1,73.4,5.37
316,Machiques,94,VE,Jul/22/2019,95,10.06,-72.55,58.85,2.21
317,Kendari,3,ID,Jul/22/2019,76,-3.99,122.52,75.23,2.62
318,San Patricio,96,PY,Jul/22/2019,78,-26.98,-56.83,69.65,2.73
319,Coquimbo,0,CL,Jul/22/2019,71,-29.95,-71.34,51.8,4.7
320,San Quintin,31,PH,Jul/22/2019,77,17.54,120.52,79.55,2.77
321,Katima Mulilo,0,NA,Jul/22/2019,68,-17.5,24.28,52.55,6.58
322,Basco,1,US,Jul/22/2019,53,40.33,-91.2,78.8,8.05
323,Alugan,96,PH,Jul/22/2019,75,12.22,125.48,82.43,3.47
324,Ferrol,0,ES,Jul/22/2019,93,43.48,-8.23,69.01,2.24
325,Nakamura,75,JP,Jul/22/2019,83,35.17,136.87,87.01,6.93
326,La Roda,0,ES,Jul/22/2019,43,39.21,-2.16,75.99,8.05
327,New Norfolk,75,AU,Jul/22/2019,66,-42.78,147.06,51.01,8.05
328,Sitka,14,US,Jul/22/2019,43,37.17,-99.65,82,4
329,Grindavik,75,IS,Jul/22/2019,100,63.84,-22.43,55.4,5.82
330,Almaznyy,0,RU,Jul/22/2019,77,48.03,40.04,64.4,2.24
331,Labuhan,3,ID,Jul/22/2019,73,-2.54,115.51,74.69,0.63
332,Lubango,0,AO,Jul/22/2019,82,-14.92,13.49,58.13,2.86
333,Kentau,0,KZ,Jul/22/2019,25,43.52,68.5,73.61,8.93
334,Panaba,1,MX,Jul/22/2019,75,21.28,-88.27,82.97,12.01
335,Puerto Carreno,40,CO,Jul/22/2019,78,6.19,-67.49,82.4,3.29
336,Kokopo,94,PG,Jul/22/2019,69,-4.34,152.27,82.25,2.42
337,Crixas,68,BR,Jul/22/2019,45,-14.55,-49.97,72.53,4.85
338,Krasnyy Chikoy,100,RU,Jul/22/2019,97,50.36,108.75,57.95,3.09
339,Kargasok,49,RU,Jul/22/2019,76,59.06,80.87,59.03,1.63
340,Cangzhou,95,CN,Jul/22/2019,86,38.3,116.85,79.73,4.21
341,Saint George,0,GR,Jul/22/2019,64,39.45,22.34,80.01,1.81
342,Nadym,50,RU,Jul/22/2019,68,65.53,72.51,58.85,14.58
343,Port Hedland,19,AU,Jul/22/2019,19,-20.31,118.58,68,10.29
344,Naze,69,NG,Jul/22/2019,98,5.43,7.07,71.99,4.23
345,Laureles,40,MX,Jul/22/2019,35,29.18,-110.87,102.2,8.05
346,Saint-Joseph,0,FR,Jul/22/2019,78,43.56,6.97,78.8,3.36
347,Plettenberg Bay,0,ZA,Jul/22/2019,39,-34.05,23.37,58.67,7.16
348,Beringovskiy,100,RU,Jul/22/2019,77,63.05,179.32,48.77,2.42
349,Saint-Jovite,75,CA,Jul/22/2019,82,46.12,-74.6,64.4,2.24
350,George Town,75,MY,Jul/22/2019,83,5.42,100.33,80.6,3.36
351,Ambalavao,1,MG,Jul/22/2019,88,-21.83,46.94,45.35,4.25
352,Turbo,75,CO,Jul/22/2019,88,8.09,-76.73,77,9.17
353,Altensteig,89,DE,Jul/22/2019,88,48.59,8.61,70,1.59
354,Funadhoo,100,MV,Jul/22/2019,78,6.15,73.27,82.97,13.42
355,Ratnagiri,100,IN,Jul/22/2019,90,16.98,73.3,79.55,18.97
356,Srivardhan,100,IN,Jul/22/2019,88,18.03,73.02,80.63,9.57
357,Ponta Delgada,75,PT,Jul/22/2019,100,37.73,-25.67,69.8,8.05
358,La Sarre,65,CA,Jul/22/2019,71,48.8,-79.2,54.17,9.64
359,Khasan,9,RU,Jul/22/2019,69,42.43,130.64,80.63,3.91
360,Saint-Pierre,0,FR,Jul/22/2019,68,48.95,4.24,66.2,5.82
361,Zyryanka,100,RU,Jul/22/2019,76,65.73,150.89,43.55,13.98
362,Chalchihuites,95,MX,Jul/22/2019,62,23.48,-103.88,65.69,10.25
363,Sao Joao da Barra,15,BR,Jul/22/2019,95,-21.64,-41.05,64.43,2.82
364,Klaebu,0,NO,Jul/22/2019,64,63.3,10.48,68,17.22
365,Vestmannaeyjar,100,IS,Jul/22/2019,90,63.44,-20.27,53.81,7.78
366,Cesvaine,98,LV,Jul/22/2019,94,56.97,26.31,57.05,5.91
367,Kruisfontein,0,ZA,Jul/22/2019,39,-34,24.73,51.83,5.77
368,Katete,48,UG,Jul/22/2019,80,-0.78,29.75,61.37,2.86
369,Faya,0,SA,Jul/22/2019,59,18.39,42.45,69.8,3.18
370,Hofn,98,IS,Jul/22/2019,95,64.25,-15.21,40.85,9.86
371,Kamenka,81,MD,Jul/22/2019,92,48.03,28.7,57.99,4.7
372,Linares,0,CL,Jul/22/2019,83,-35.85,-71.6,41.75,10.02
373,San Policarpo,61,PH,Jul/22/2019,76,12.18,125.51,81.53,5.53
374,Santa Rosa de Aguan,81,HN,Jul/22/2019,83,15.95,-85.71,82.25,22.01
375,Road Town,40,VG,Jul/22/2019,70,18.42,-64.62,84.2,10.29
376,Oistins,40,BB,Jul/22/2019,83,13.07,-59.53,80.6,17.22
377,Suamico,1,US,Jul/22/2019,46,44.63,-88.04,77,3.36
378,La Reforma,75,MX,Jul/22/2019,52,25.08,-108.06,93.2,11.41
379,Salinas,1,US,Jul/22/2019,50,36.67,-121.66,91,10.29
380,Fagernes,100,NO,Jul/22/2019,87,60.99,9.24,54,2.06
381,Kodinsk,26,RU,Jul/22/2019,67,58.6,99.18,65.87,3.09
382,Ahipara,29,NZ,Jul/22/2019,97,-35.17,173.16,64.99,3
383,Ostrovnoy,14,RU,Jul/22/2019,62,68.05,39.51,47.87,7.02
384,Wattegama,100,LK,Jul/22/2019,90,7.35,80.68,71.63,5.68
385,Am Timan,100,TD,Jul/22/2019,91,11.04,20.28,73.79,4.07
386,Nuevo Imperial,36,PE,Jul/22/2019,88,-13.08,-76.32,58.49,11.25
387,Ludlow,75,US,Jul/22/2019,100,39.09,-84.55,71.01,5.82
388,Miram Shah,0,PK,Jul/22/2019,57,33.01,70.07,81.17,2.73
389,Flin Flon,69,CA,Jul/22/2019,27,54.77,-101.88,84.95,8.81
390,Sobolevo,100,RU,Jul/22/2019,99,54.43,31.9,59.75,2.24
391,Acajutla,100,SV,Jul/22/2019,66,13.59,-89.83,85.13,2.73
392,Awjilah,0,LY,Jul/22/2019,63,29.14,21.3,74.51,11.88
393,Necochea,0,AR,Jul/22/2019,95,-38.55,-58.74,37.99,1.01
394,Gamba,55,CN,Jul/22/2019,77,28.28,88.52,43.37,2.26
395,Sampang,38,ID,Jul/22/2019,87,-7.54,109.46,70.19,1.97
396,Sakaiminato,75,JP,Jul/22/2019,70,35.55,133.23,84.2,17.22
397,Quatre Cocos,68,MU,Jul/22/2019,86,-20.21,57.76,66,14.79
398,Los Llanos de Aridane,90,ES,Jul/22/2019,64,28.66,-17.92,71.6,11.41
399,Vorukh,0,KG,Jul/22/2019,38,39.85,70.57,71.27,3.15
400,Bako,7,BF,Jul/22/2019,61,12.29,-0.73,81.53,9.17
401,Bagotville,0,AU,Jul/22/2019,64,-28.98,153.42,68,5.82
402,Rocha,89,UY,Jul/22/2019,80,-34.48,-54.34,49.13,10.33
403,Quelimane,15,MZ,Jul/22/2019,85,-17.88,36.89,57.95,3.04
404,Samarai,91,PG,Jul/22/2019,91,-10.62,150.67,75.23,8.9
405,Banda Aceh,96,ID,Jul/22/2019,68,5.56,95.32,83.33,6.15
406,Ponta do Sol,83,BR,Jul/22/2019,71,-20.63,-46,60.47,6.15
407,Soyo,0,AO,Jul/22/2019,90,-6.13,12.37,71.09,7.81
408,Hualmay,18,PE,Jul/22/2019,88,-11.1,-77.61,61.55,18.19
409,Baykit,42,RU,Jul/22/2019,54,61.68,96.39,62.45,5.39
410,Hammerfest,20,NO,Jul/22/2019,93,70.66,23.68,55.4,9.17
411,Mporokoso,0,ZM,Jul/22/2019,85,-9.37,30.12,50.93,6.89
412,Srednekolymsk,100,RU,Jul/22/2019,90,67.46,153.71,40.13,11.9
413,Vanavara,10,RU,Jul/22/2019,59,60.35,102.28,62.99,5.75
414,Harwich,90,US,Jul/22/2019,94,41.69,-70.08,75,6.93
415,Soure,90,PT,Jul/22/2019,93,40.06,-8.63,64.99,5.82
416,Marietta,1,US,Jul/22/2019,61,33.95,-84.55,87.8,3.36
417,Maholi,21,IN,Jul/22/2019,54,27.65,80.48,89.27,3.09
418,Waipawa,100,NZ,Jul/22/2019,95,-39.94,176.59,51.01,1.12
419,Astoria,1,US,Jul/22/2019,72,46.19,-123.83,79,11.41
420,Flinders,0,AU,Jul/22/2019,36,-34.58,150.85,66,16.11
421,Kavieng,48,PG,Jul/22/2019,82,-2.57,150.8,81.71,13.35
422,Hanzhong,35,CN,Jul/22/2019,76,33.08,107.03,72.71,1.39
423,Leh,0,IN,Jul/22/2019,43,34.16,77.58,41.75,1.25
424,Chimbote,28,PE,Jul/22/2019,90,-9.08,-78.59,62.27,14.5
425,Ihosy,50,MG,Jul/22/2019,93,-22.4,46.13,47.33,12.53
426,Palmas,0,BR,Jul/22/2019,42,-10.18,-48.33,75.05,3.67
427,Prince Rupert,20,CA,Jul/22/2019,72,54.32,-130.32,66.2,10.29
428,Mega,73,ET,Jul/22/2019,54,4.06,38.32,70.91,12.88
429,Sedan,100,FR,Jul/22/2019,64,49.7,4.94,68,1.12
430,Dakar,40,SN,Jul/22/2019,78,14.69,-17.45,78.8,4.7
431,Campoverde,40,EC,Jul/22/2019,76,-0.91,-78.62,51.8,13.87
432,Katsuura,40,JP,Jul/22/2019,88,33.93,134.5,84.2,4.7
433,Jacareacanga,2,BR,Jul/22/2019,60,-6.22,-57.76,78.65,0.65
434,Santa Maria,0,BR,Jul/22/2019,59,-16.02,-48.01,66.2,5.82
435,Ranong,20,TH,Jul/22/2019,100,9.96,98.62,77,6.73
436,Sibolga,99,ID,Jul/22/2019,77,1.74,98.78,80.45,0.56
437,Tucuman,0,PE,Jul/22/2019,49,-17.17,-70.89,53.27,4.32
438,Seoul,90,KR,Jul/22/2019,94,37.57,126.98,82.4,1.12
439,Pilar,0,AR,Jul/22/2019,50,-34.46,-58.91,55.4,4.7
440,Chapleau,75,CA,Jul/22/2019,50,47.85,-83.4,68,6.93
441,Praya,75,ID,Jul/22/2019,88,-8.71,116.27,75.2,6.93
442,Samana,38,EC,Jul/22/2019,97,0.12,-76.97,71.09,1.19
443,Blenheim,0,NZ,Jul/22/2019,80,-41.52,173.96,59,1.99
444,Cockburn Town,4,TC,Jul/22/2019,79,21.46,-71.14,82.43,18.21
445,Murray Bridge,2,AU,Jul/22/2019,79,-35.12,139.28,59,15.01
446,Clyde River,1,CA,Jul/22/2019,87,70.47,-68.59,42.8,12.75
447,Farafangana,94,MG,Jul/22/2019,89,-22.82,47.83,57.41,3.98
448,Taoudenni,2,ML,Jul/22/2019,9,22.68,-3.98,97.55,9.44
449,Kidal,85,ML,Jul/22/2019,40,18.44,1.41,88.37,13.56
450,Saint-Raymond,1,CA,Jul/22/2019,59,46.89,-71.84,69.01,2.24
451,Mayor Pablo Lagerenza,90,PY,Jul/22/2019,39,-19.93,-60.77,79.19,6.58
452,Marsa Matruh,0,EG,Jul/22/2019,78,31.35,27.25,75.2,5.82
453,Sao Jose da Coroa Grande,1,BR,Jul/22/2019,94,-8.9,-35.15,69.83,5.12
454,Lima,90,PE,Jul/22/2019,82,-12.06,-77.04,62.6,9.17
455,Victoria,75,BN,Jul/22/2019,83,5.28,115.24,80.6,6.93
456,Krasnyy Yar,3,RU,Jul/22/2019,80,50.7,44.73,59.03,3.18
457,Darab,19,IR,Jul/22/2019,46,28.75,54.55,69.11,3.24
458,La Ronge,20,CA,Jul/22/2019,45,55.1,-105.3,82.4,9.17
459,Kpandae,37,GH,Jul/22/2019,81,8.46,-0.01,75.95,7.72
460,Butterworth,75,MY,Jul/22/2019,83,5.4,100.37,80.6,3.36
461,Marawi,100,PH,Jul/22/2019,84,8,124.29,78.01,5.99
462,Cottonwood,60,US,Jul/22/2019,44,34.74,-112.01,100.99,12.75
463,Kilindoni,22,TZ,Jul/22/2019,67,-7.91,39.67,76.49,28.43
464,Mariveles,75,PH,Jul/22/2019,83,14.48,120.48,84,1.12
465,San Jeronimo,9,PE,Jul/22/2019,93,-13.65,-73.37,47.15,4.29
466,Souillac,0,FR,Jul/22/2019,54,45.6,-0.6,80.6,5.82
467,Mufumbwe,0,ZM,Jul/22/2019,56,-13.68,24.8,53.09,7.43
468,Coihaique,40,CL,Jul/22/2019,65,-45.58,-72.07,41,3.36
469,Naples,0,IT,Jul/22/2019,78,40.84,14.25,80.01,2.24
470,Jefferson City,1,US,Jul/22/2019,51,38.58,-92.17,80.6,13.87
471,Sioux Lookout,75,CA,Jul/22/2019,77,50.1,-91.92,66.2,6.93
472,Chalus,40,IR,Jul/22/2019,83,36.66,51.42,77,4.7
473,Pokhvistnevo,0,RU,Jul/22/2019,96,53.65,52.12,52.55,5.21
474,Margate,75,AU,Jul/22/2019,61,-43.03,147.26,51.01,8.05
475,Bolgatanga,43,GH,Jul/22/2019,75,10.79,-0.85,77.21,6.78
476,Torbay,20,CA,Jul/22/2019,93,47.66,-52.73,59,5.82
477,Budesti,99,RO,Jul/22/2019,77,44.23,26.47,73.99,2.24
478,Solton,82,RU,Jul/22/2019,82,52.84,86.48,57.05,1.74
479,Nakatsugawa,40,JP,Jul/22/2019,88,35.49,137.5,87.01,1.12
480,Massa Marittima,0,IT,Jul/22/2019,69,43.05,10.89,80.01,4.7
481,Boa Vista,40,BR,Jul/22/2019,88,2.82,-60.67,77,2.24
482,Tyret Pervaya,99,RU,Jul/22/2019,80,53.67,102.31,64.25,1.39
483,Vestmanna,60,FO,Jul/22/2019,100,62.16,-7.17,51.8,4.7
484,Santiago,59,PH,Jul/22/2019,82,16.69,121.54,78.47,0.98
485,Tura,73,RU,Jul/22/2019,56,64.27,100.22,65.87,4.05
486,Porto Novo,0,BR,Jul/22/2019,64,-23.68,-45.44,68,3.36
487,Bandarbeyla,20,SO,Jul/22/2019,51,9.49,50.81,78.47,27.16
488,Jining,89,CN,Jul/22/2019,66,35.41,116.58,88.37,10.02
489,Sedhiou,95,SN,Jul/22/2019,88,12.71,-15.56,78.8,4.7
490,Paso de Carrasco,0,UY,Jul/22/2019,81,-34.86,-56.05,54,8.05
491,Svetlogorsk,40,RU,Jul/22/2019,67,53.14,59.15,62.6,11.18
492,Singkang,75,MY,Jul/22/2019,88,2.1,102.8,77,4.7
493,Evensk,41,RU,Jul/22/2019,39,61.92,159.24,52.91,12.57
494,Batagay-Alyta,15,RU,Jul/22/2019,44,67.8,130.41,56.15,3.62
495,Palmerston,0,AU,Jul/22/2019,53,-12.49,130.99,78.01,8.05
496,Okoneshnikovo,0,RU,Jul/22/2019,88,54.84,75.08,55.61,5.12
497,Slupsk,99,PL,Jul/22/2019,85,54.46,17.03,59.21,5.53
498,Hunchun,28,CN,Jul/22/2019,70,42.86,130.36,79.19,2.48
499,Kapit,100,MY,Jul/22/2019,97,2.02,112.94,73.07,1.34
500,Pitmedden,41,GB,Jul/22/2019,82,57.34,-2.18,64.4,4.7
501,Valle de Allende,100,MX,Jul/22/2019,33,26.94,-105.39,80.63,12.21
502,Arlit,0,NE,Jul/22/2019,25,18.74,7.39,97.37,12.68
503,Ruwi,0,OM,Jul/22/2019,83,23.6,58.55,84.2,2.24
504,Strezhevoy,25,RU,Jul/22/2019,93,60.73,77.6,57.2,4.47
505,Contamana,39,PE,Jul/22/2019,61,-7.35,-75.01,79.37,1.52
506,Denpasar,74,ID,Jul/22/2019,79,-8.65,115.22,72.71,7.61
507,Khash,6,IR,Jul/22/2019,28,28.22,61.21,68.75,4.61
508,Beloit,1,US,Jul/22/2019,44,39.46,-98.11,78.8,14.99
509,Mao,40,DO,Jul/22/2019,78,19.55,-71.08,84.2,11.41
510,Egvekinot,100,RU,Jul/22/2019,89,66.32,-179.17,45.53,6.24
511,Yumen,49,CN,Jul/22/2019,43,40.29,97.04,71.45,11.3
512,Omsukchan,100,RU,Jul/22/2019,83,62.53,155.8,33.29,10.58
513,Posevnaya,17,RU,Jul/22/2019,87,54.3,83.33,52.73,4.61
514,Talnakh,75,RU,Jul/22/2019,93,69.49,88.39,55.4,15.66
515,Alekseyevsk,40,RU,Jul/22/2019,52,57.84,108.35,64.07,6.31
516,Japura,84,ID,Jul/22/2019,93,-0.42,102.29,73.79,2.04
517,Dabat,100,ET,Jul/22/2019,93,12.98,37.77,64.43,1.66
518,Port Shepstone,0,ZA,Jul/22/2019,14,-30.74,30.45,63.89,11.05
519,Mahebourg,68,MU,Jul/22/2019,86,-20.41,57.7,66,14.79
520,Arrifes,75,PT,Jul/22/2019,100,37.77,-25.7,69.8,8.05
521,Laguna,40,BZ,Jul/22/2019,74,16.17,-88.94,86,6.93
522,Zhigansk,17,RU,Jul/22/2019,31,66.77,123.37,64.79,7.4
523,Dunedin,99,NZ,Jul/22/2019,94,-45.87,170.5,51.01,9.28
524,Urusha,75,RU,Jul/22/2019,60,54.05,122.9,62.09,11.25
525,Baherden,0,TM,Jul/22/2019,13,38.44,57.43,77.21,5.46
526,Khandyga,0,RU,Jul/22/2019,30,62.65,135.58,64.61,15.32
527,Maloy,76,ID,Jul/22/2019,93,1,118.1,75.59,2.06
528,Svecha,86,RU,Jul/22/2019,94,58.28,47.52,54.71,4.99
529,Wenling,45,CN,Jul/22/2019,80,28.38,121.38,91,7
530,Bull Savanna,66,JM,Jul/22/2019,75,17.89,-77.59,83.15,16.53
531,Zinder,43,NE,Jul/22/2019,56,13.81,8.99,83.51,11.83
532,Yar-Sale,14,RU,Jul/22/2019,76,66.83,70.83,52.73,13.33
533,Rotifunk,100,SL,Jul/22/2019,93,8.23,-12.68,74.69,1.28
534,Nerchinskiy Zavod,100,RU,Jul/22/2019,77,51.31,119.61,59.93,6.02
535,Anantapur,100,IN,Jul/22/2019,77,14.68,77.61,75.05,17.38
536,Port Hardy,40,CA,Jul/22/2019,56,50.7,-127.42,71.6,13.87
537,Tessalit,83,ML,Jul/22/2019,34,20.2,1.01,90.35,4.81
538,Oum Hadjer,97,TD,Jul/22/2019,69,13.3,19.7,82.07,6.76
539,Mount Pleasant,1,US,Jul/22/2019,62,33.16,-94.97,84.2,14.99
540,Coari,20,BR,Jul/22/2019,82,-4.09,-63.14,77.21,2.44
541,Utiel,0,ES,Jul/22/2019,57,39.57,-1.21,77,4.7
542,Canutama,25,BR,Jul/22/2019,63,-6.53,-64.38,79.19,2.37
543,Henties Bay,77,NA,Jul/22/2019,93,-22.12,14.28,53.45,2.1
544,San-Pedro,100,CI,Jul/22/2019,97,4.75,-6.64,71.45,3.58
545,Araceli,95,PH,Jul/22/2019,83,10.55,119.99,78.29,0.76
546,Nizhniy Kuranakh,0,RU,Jul/22/2019,53,58.84,125.49,64.43,6.44
547,Bambanglipuro,78,ID,Jul/22/2019,85,-7.95,110.28,73.25,6.87
548,Richards Bay,0,ZA,Jul/22/2019,40,-28.77,32.06,65.15,8.99
549,Luena,0,AO,Jul/22/2019,40,-11.78,19.91,49.49,1.9
550,Sabha,0,LY,Jul/22/2019,21,27.03,14.43,78.29,12.66
551,Dharchula,12,IN,Jul/22/2019,90,29.85,80.53,51.83,1.16
552,Gavrilov Posad,36,RU,Jul/22/2019,83,56.56,40.12,54.71,1.66
553,Chapais,90,CA,Jul/22/2019,59,49.78,-74.86,62.6,5.82
554,Menongue,9,AO,Jul/22/2019,31,-14.66,17.68,50.57,4.94
555,Batticaloa,99,LK,Jul/22/2019,77,7.71,81.69,76.13,2.93
556,Joshimath,5,IN,Jul/22/2019,85,30.57,79.57,53.81,2.44
557,Pitimbu,75,BR,Jul/22/2019,100,-7.47,-34.81,73.4,11.41
558,Aklavik,40,CA,Jul/22/2019,53,68.22,-135.01,71.6,8.05
559,Tilichiki,98,RU,Jul/22/2019,58,60.47,166.1,56.87,2.98
560,Lieksa,0,FI,Jul/22/2019,74,63.32,30.02,54.71,0.38
561,Nueva Helvecia,100,UY,Jul/22/2019,94,-34.28,-57.23,48,1.01
562,Isangel,75,VU,Jul/22/2019,60,-19.55,169.27,73.4,5.82
563,Kysyl-Syr,0,RU,Jul/22/2019,42,63.9,122.77,65.87,3.91
564,Mount Gambier,75,AU,Jul/22/2019,87,-37.83,140.78,48.2,8.05
565,Moundou,64,TD,Jul/22/2019,86,8.57,16.07,71.45,1.63
566,Fallon,1,US,Jul/22/2019,34,46.84,-105.12,82.99,12.75
567,North Myrtle Beach,1,US,Jul/22/2019,83,33.83,-78.68,84.2,16.11
568,Port Macquarie,0,AU,Jul/22/2019,52,-31.43,152.91,73.99,5.82
569,Huainan,88,CN,Jul/22/2019,70,32.59,117.01,88.01,6.13
570,Udachnyy,0,RU,Jul/22/2019,33,66.42,112.4,71.6,4.47
571,Praxedis Guerrero,1,MX,Jul/22/2019,27,31.37,-106.02,89.6,17.22
572,Athabasca,22,CA,Jul/22/2019,61,54.72,-113.29,76.49,9.75
